lng,lat,type,line,name
2.099720795,41.36366931,METRO,L1,RAMBLA JUST OLIVERAS
2.100304456,41.3629869,METRO,L1,RAMBLA JUST OLIVERAS
2.100306785,41.36424123,METRO,L1,RAMBLA JUST OLIVERAS
2.100571384,41.36370404,METRO,L1,RAMBLA JUST OLIVERAS
2.102671936,41.35741393,METRO,L1,AVINGUDA CARRILET
2.102668376,41.35930846,METRO,L1,AVINGUDA CARRILET
2.10303192,41.35878888,METRO,L1,AVINGUDA CARRILET
2.103237123,41.36765655,METRO,L1,CAN SERRA
2.103661631,41.36829808,METRO,L1,CAN SERRA
2.103933466,41.36819296,METRO,L1,CAN SERRA
2.106411517,41.34472942,METRO,L1,HOSPITAL DE BELLVITGE
2.106696289,41.34434806,METRO,L1,HOSPITAL DE BELLVITGE
2.109900444,41.35153623,METRO,L1,BELLVITGE
2.110590536,41.35040613,METRO,L1,BELLVITGE
2.110398383,41.36788261,METRO,L1,FLORIDA
2.110688422,41.35124507,METRO,L1,BELLVITGE
2.110683329,41.3685303,METRO,L1,FLORIDA
2.110978907,41.35200091,METRO,L1,BELLVITGE
2.110877603,41.36838558,METRO,L1,FLORIDA
2.111767512,41.35092587,METRO,L1,BELLVITGE
2.116492506,41.36875141,METRO,L1,TORRASSA
2.117110678,41.36860394,METRO,L1,TORRASSA
2.11727265,41.36816319,METRO,L1,TORRASSA
2.128700249,41.36845238,METRO,L1,SANTA EULÀLIA
2.129177891,41.36913663,METRO,L1,SANTA EULÀLIA
2.129978979,41.36956635,METRO,L1,SANTA EULÀLIA
2.133192408,41.37330269,METRO,L1,MERCAT NOU (C. d'Antoni de Capmany)
2.133649999,41.37296285,METRO,L1,MERCAT NOU (C. de la Riera de Tena)
2.13403377,41.37355258,METRO,L1,MERCAT NOU
2.134549019,41.37418155,METRO,L1,MERCAT NOU (C. dels Jocs Florals)
2.137303763,41.37557992,METRO,L1,PLAÇA DE SANTS (C. de Sants)
2.137495774,41.37525966,METRO,L1,PLAÇA DE SANTS (C. de Sants)
2.138495929,41.37555171,METRO,L1,PLAÇA DE SANTS
2.138803533,41.37522605,METRO,L1,PLAÇA DE SANTS (C. de Sants)
2.138847324,41.37547715,METRO,L1,PLAÇA DE SANTS (C. de Sants)
2.142364373,41.37514345,METRO,L1,HOSTAFRANCS (C. del Moianès)
2.14344717,41.37556193,METRO,L1,HOSTAFRANCS (C. del Consell de Cent)
2.143993686,41.37530103,METRO,L1,HOSTAFRANCS
2.14452535,41.37536559,METRO,L1,HOSTAFRANCS (C. de la Creu Coberta)
2.148311991,41.37535311,METRO,L1,ESPANYA (C. de la Creu Coberta)
2.148803159,41.37538915,METRO,L1,ESPANYA
2.149457896,41.37555513,METRO,L1,ESPANYA (C. de Tarragona)
2.153968152,41.37907964,METRO,L1,ROCAFORT (C. de Rocafort)
2.154408239,41.37869462,METRO,L1,ROCAFORT (C. de Rocafort)
2.154458829,41.37915867,METRO,L1,ROCAFORT
2.15491515,41.37966543,METRO,L1,ROCAFORT (Gv. Corts Catalanes)
2.155172915,41.37947033,METRO,L1,ROCAFORT (Gv. Corts Catalanes)
2.158239547,41.38206524,METRO,L1,URGELL (Gv. Corts Catalanes)
2.159000556,41.38246663,METRO,L1,URGELL
2.159451896,41.38296435,METRO,L1,URGELL (Gv. Corts Catalanes)
2.159851767,41.38267712,METRO,L1,URGELL (C. de Villarroel)
2.16347712,41.38541229,METRO,L1,UNIVERSITAT (Pl. de la Universitat)
2.164165295,41.38556032,METRO,L1,UNIVERSITAT
2.164573138,41.38615413,METRO,L1,UNIVERSITAT (Rda. de la Universitat)
2.164721868,41.38582388,METRO,L1,UNIVERSITAT (C. de Pelai)
2.16850964,41.38771525,METRO,L1,CATALUNYA (Rambla de Catalunya)
2.168590856,41.38720977,METRO,L1,CATALUNYA (Rda. Universitat)
2.16949435,41.3875795,METRO,L1,CATALUNYA (Pl. de Catalunya)
2.169509919,41.38763433,METRO,L1,CATALUNYA
2.169599853,41.38812088,METRO,L1,CATALUNYA (Pg. de Gràcia)
2.170689943,41.38792375,METRO,L1,CATALUNYA (Rda. de Sant Pere)
2.173092689,41.38952927,METRO,L1,URQUINAONA
2.173374382,41.38941091,METRO,L1,URQUINAONA (Pl. d'Urquinaona)
2.174006246,41.38911798,METRO,L1,URQUINAONA (C. Jonqueres)
2.175021341,41.39003092,METRO,L1,URQUINAONA (C. Bruc)
2.180063902,41.3923961,METRO,L1,ARC DE TRIOMF
2.180383585,41.39167299,METRO,L1,ARC DE TRIOMF (Avda. de Vilanova)
2.182220991,41.39323725,METRO,L1,ARC DE TRIOMF (C. de Nàpols)
2.183326561,41.4304684,METRO,L1,FABRA I PUIG
2.183466347,41.43114779,METRO,L1,FABRA I PUIG (Av. Meridiana)
2.183564113,41.43087012,METRO,L1,FABRA I PUIG (Av. Meridiana)
2.183586581,41.43010285,METRO,L1,FABRA I PUIG (Pg. de Fabra i Puig)
2.183630555,41.43047616,METRO,L1,FABRA I PUIG (Pg. de Fabra i Puig)
2.184199044,41.42900253,METRO,L1,FABRA I PUIG (C. de Concepción Arenal)
2.186430145,41.39558906,METRO,L1,MARINA (Av. Meridiana)
2.186844745,41.39558334,METRO,L1,MARINA
2.187074649,41.39543101,METRO,L1,MARINA (C. dels Almogàvers)
2.187100997,41.40207234,METRO,L1,GLÒRIES (Av. Meridiana)
2.187150202,41.40925122,METRO,L1,CLOT (C. Aragó)
2.187240813,41.40289095,METRO,L1,GLÒRIES (Pl. de les Glòries Catalanes)
2.187088377,41.4161651,METRO,L1,NAVAS
2.187204236,41.41083767,METRO,L1,CLOT (C. de València)
2.187231701,41.4158216,METRO,L1,NAVAS (C. de Palència)
2.187346864,41.40865194,METRO,L1,CLOT (Aragó Meridiana)
2.187200971,41.42250113,METRO,L1,LA SAGRERA
2.187229161,41.42198994,METRO,L1,LA SAGRERA (Av. Meridiana)
2.18729643,41.41672999,METRO,L1,NAVAS (Av. Meridiana)
2.187515222,41.40270791,METRO,L1,GLÒRIES
2.187274606,41.42309884,METRO,L1,LA SAGRERA (C. de Garcilaso)
2.187533054,41.41122718,METRO,L1,CLOT
2.188342803,41.40299335,METRO,L1,GLÒRIES (C. d'Àlaba)
2.190340194,41.44416353,METRO,L1,TORRAS I BAGES (Pg. de Torras i Bages)
2.19050326,41.44230762,METRO,L1,TORRAS I BAGES (C. de Palomar)
2.190667804,41.44381639,METRO,L1,TORRAS I BAGES
2.190749819,41.43733383,METRO,L1,SANT ANDREU
2.19071125,41.44419276,METRO,L1,TORRAS I BAGES (Pg. de Torras i Bages)
2.19087253,41.44231402,METRO,L1,TORRAS I BAGES (C. de Palomar)
2.191052095,41.43644254,METRO,L1,SANT ANDREU (Pl. d'Orfila)
2.191106117,41.43781582,METRO,L1,SANT ANDREU (C. de Joan Torres)
2.194358313,41.44897681,METRO,L1,TRINITAT VELLA (Parc de la Trinitat)
2.194386226,41.44954814,METRO,L1,TRINITAT VELLA
2.199665925,41.44990541,METRO,L1,BARÓ DE VIVER
2.200229806,41.45005219,METRO,L1,BARÓ DE VIVER
2.207163189,41.45145348,METRO,L1,SANTA COLOMA
2.207418277,41.45106719,METRO,L1,SANTA COLOMA
2.20799019,41.45191718,METRO,L1,SANTA COLOMA
2.208352471,41.45161292,METRO,L1,SANTA COLOMA
2.217066892,41.45177007,METRO,L1,FONDO
2.217789243,41.45173778,METRO,L1,FONDO
2.21861214,41.45160533,METRO,L1,FONDO
2.21724586,41.44148502,METRO,L10,LLEFIÀ
2.224026748,41.44235585,METRO,L10,LA SALUT
2.234243506,41.44036694,METRO,L10,GORG
2.171019771,41.46256535,METRO,L11,CAN CUIÀS (C. Circumval·lació Montcada)
2.171580937,41.46274731,METRO,L11,CAN CUIÀS
2.172142107,41.46292928,METRO,L11,CAN CUIÀS (C. Tapissers Montcada)
2.174475791,41.46089821,METRO,L11,CIUTAT MERIDIANA (C. Pedraforca)
2.179122091,41.4596332,METRO,L11,TORRE BARÓ VALLBONA (C. Sant Feliu de Codines)
2.179852355,41.45941836,METRO,L11,TORRE BARÓ VALLBONA
2.180582626,41.45920352,METRO,L11,TORRE BARÓ VALLBONA (C. Esculapi Càncer)
2.18539381,41.45150175,METRO,L11,CASA DE L'AIGUA (C. Vila Real)
2.16290384,41.3791691,METRO,L2,SANT ANTONI (C. Comte d'Urgell)
2.163017741,41.37996246,METRO,L2,SANT ANTONI
2.163174974,41.38069881,METRO,L2,SANT ANTONI (C. de Villarroel)
2.163254343,41.38502493,METRO,L2,UNIVERSITAT
2.163411208,41.37899923,METRO,L2,SANT ANTONI (Rda. Sant Antoni)
2.163683631,41.38452306,METRO,L2,UNIVERSITAT (Rda. de Sant Antoni)
2.163701651,41.38503015,METRO,L2,UNIVERSITAT (C. d'Aribau)
2.164142957,41.38485309,METRO,L2,UNIVERSITAT (Rda. de Sant Antoni)
2.167581432,41.37510069,METRO,L2,PARAL·LEL
2.167767234,41.37480552,METRO,L2,PARAL·LEL (C. d'en Fontrodona)
2.167764761,41.3892931,METRO,L2,PASSEIG DE GRÀCIA (Gv. Corts Catalanes)
2.168231115,41.37524079,METRO,L2,PARAL·LEL (Av. de Paral.lel)
2.168332839,41.38954251,METRO,L2,PASSEIG DE GRÀCIA
2.168737839,41.38930443,METRO,L2,PASSEIG DE GRÀCIA (Pg. de Gràcia)
2.174593393,41.39463371,METRO,L2,TETUAN
2.174678257,41.394965,METRO,L2,TETUAN (Pl. de Tetuan)
2.175487774,41.39429471,METRO,L2,TETUAN (Pl. de Tetuan)
2.175564696,41.4038567,METRO,L2,SAGRADA FAMÍLIA (Pl. de Gaudí)
2.176317671,41.40426619,METRO,L2,SAGRADA FAMÍLIA
2.179583536,41.4001892,METRO,L2,MONUMENTAL (C. de la Marina)
2.180024458,41.40034064,METRO,L2,MONUMENTAL (C. de la Diputació)
2.180039956,41.4000965,METRO,L2,MONUMENTAL
2.182169721,41.40728048,METRO,L2,ENCANTS (C. del Dos de Maig)
2.18256002,41.4073477,METRO,L2,ENCANTS
2.182804132,41.40707773,METRO,L2,ENCANTS (C. de València)
2.186175339,41.41012662,METRO,L2,CLOT (C. de Sibelius)
2.186557004,41.41010979,METRO,L2,CLOT
2.195015157,41.41529209,METRO,L2,BAC DE RODA
2.195094897,41.41480838,METRO,L2,BAC DE RODA (Rambla Guipúscoa)
2.19618183,41.41560386,METRO,L2,BAC DE RODA (Rambla Guipúscoa)
2.200097571,41.41861325,METRO,L2,SANT MARTÍ (Rambla Guipúscoa)
2.200603659,41.41931558,METRO,L2,SANT MARTÍ
2.201264373,41.4194682,METRO,L2,SANT MARTÍ (Rambla Guipúscoa)
2.206691648,41.42383621,METRO,L2,LA PAU
2.209634906,41.43030888,METRO,L2,VERNEDA
2.209906221,41.43006554,METRO,L2,VERNEDA
2.210272373,41.42994451,METRO,L2,VERNEDA
2.216805053,41.4338885,METRO,L2,ARTIGUES SANT ADRIÀ
2.217243444,41.43382546,METRO,L2,ARTIGUES SANT ADRIÀ
2.217373559,41.43351349,METRO,L2,ARTIGUES SANT ADRIÀ
2.227786668,41.43552559,METRO,L2,SANT ROC
2.228149034,41.43535116,METRO,L2,SANT ROC
2.22850433,41.43587765,METRO,L2,SANT ROC
2.233990919,41.4412997,METRO,L2,GORG
2.234042999,41.44064853,METRO,L2,GORG
2.234257848,41.44112233,METRO,L2,GORG
2.238212552,41.44460061,METRO,L2,PEP VENTURA
2.238367234,41.44515906,METRO,L2,PEP VENTURA
2.238944313,41.4445472,METRO,L2,PEP VENTURA
2.239148279,41.445304,METRO,L2,PEP VENTURA
2.244211818,41.44914171,METRO,L2,BADALONA POMPEU FABRA
2.205989071,41.42348062,METRO,"L2,L4",LA PAU (L2 i L4) (Rambla de Guipúscoa)
2.110403174,41.38414792,METRO,L3,ZONA UNIVERSITÀRIA
2.111623209,41.38464835,METRO,L3,ZONA UNIVERSITÀRIA (Av. Diagonal)
2.111706198,41.38421783,METRO,L3,ZONA UNIVERSITÀRIA (Av. Diagonal)
2.117872085,41.38612574,METRO,L3,PALAU REIAL (Av. Diagonal)
2.117875124,41.38591507,METRO,L3,PALAU REIAL
2.118015286,41.38581759,METRO,L3,PALAU REIAL (Av. Diagonal)
2.126138026,41.38827013,METRO,L3,MARIA CRISTINA (Av. Diagonal)
2.126306576,41.38821373,METRO,L3,MARIA CRISTINA
2.126497279,41.3879418,METRO,L3,MARIA CRISTINA (Av. Diagonal)
2.127859263,41.38836633,METRO,L3,MARIA CRISTINA (Pl. de la Reina Maria Cristina)
2.130680999,41.38424258,METRO,L3,LES CORTS (Travessera de les Corts)
2.130849999,41.38397974,METRO,L3,LES CORTS (C. de Joan Güell)
2.13139176,41.38455432,METRO,L3,LES CORTS
2.136212847,41.38218562,METRO,L3,PLAÇA DEL CENTRE (Pl. del Centre)
2.136551765,41.38268202,METRO,L3,PLAÇA DEL CENTRE
2.139889352,41.38198833,METRO,L3,SANTS ESTACIÓ (C. d'Enric Bargés)
2.140544441,41.38230709,METRO,L3,SANTS ESTACIÓ (Jardins de Màlaga)
2.140753189,41.41797288,METRO,L3,PENITENTS
2.140981328,41.41721408,METRO,L3,PENITENTS (C. d'Anna Piferrer)
2.140980734,41.41770052,METRO,L3,PENITENTS (Av. de l'Hospital Militar)
2.1415147,41.3815315,METRO,L3,SANTS ESTACIÓ
2.14160542,41.38086697,METRO,L3,SANTS ESTACIÓ (C. de Numància)
2.1420218,41.38116653,METRO,L3,SANTS ESTACIÓ (Av. de Josep Tarradellas)
2.142550072,41.42527137,METRO,L3,VALL D'HEBRON
2.144458573,41.37886153,METRO,L3,TARRAGONA (C. del Elisi)
2.145227698,41.37881461,METRO,L3,TARRAGONA (C. de Tarragona)
2.144800964,41.41176203,METRO,L3,VALLCARCA (Av. de l'Hospital Militar)
2.144556385,41.43063664,METRO,L3,MONTBAU (Jardins de Pedro Muñoz Seca)
2.144865909,41.41147014,METRO,L3,VALLCARCA (Jardins Manuel Blancafort)
2.145438346,41.37807332,METRO,L3,TARRAGONA (C. Sant Nicolau)
2.145480927,41.37857428,METRO,L3,TARRAGONA
2.145087117,41.41141065,METRO,L3,VALLCARCA
2.145193251,41.430856,METRO,L3,MONTBAU
2.145259743,41.43056984,METRO,L3,MONTBAU (Ronda de Dalt)
2.146054247,41.37825862,METRO,L3,TARRAGONA (C. d'Aragó)
2.147017523,41.43544131,METRO,L3,MUNDET (Llars Mundet Velòdrom)
2.147498125,41.4352445,METRO,L3,MUNDET
2.147801084,41.43486427,METRO,L3,MUNDET (Can Marcet)
2.149093129,41.37430034,METRO,L3,ESPANYA (Pl. d'Espanya)
2.148559274,41.43533444,METRO,L3,MUNDET (Can Marcet)
2.149831636,41.37452226,METRO,L3,ESPANYA (Av. de la Reina Maria Cristina)
2.149574602,41.40611988,METRO,L3,LESSEPS (Rda. Gral. Mitre)
2.150031392,41.37537212,METRO,L3,ESPANYA (Gv. Corts Catalanes)
2.150173745,41.37483537,METRO,L3,ESPANYA (Av. del Paral.lel)
2.15030346,41.3751694,METRO,L3,ESPANYA
2.150393892,41.40660881,METRO,L3,LESSEPS
2.152801078,41.40260652,METRO,L3,FONTANA (C. Gran de Gràcia)
2.152817524,41.40230654,METRO,L3,FONTANA
2.15639432,41.43758,METRO,L3,VALLDAURA
2.157008748,41.43813745,METRO,L3,VALLDAURA
2.158824145,41.37522942,METRO,L3,POBLE SEC (C. de Manso)
2.158938852,41.37487917,METRO,L3,POBLE SEC (Av. del Paral.lel)
2.159882153,41.37515627,METRO,L3,POBLE SEC
2.159715513,41.39611923,METRO,L3,DIAGONAL (Pl. Joan Carles I)
2.160124672,41.39632466,METRO,L3,DIAGONAL (Av. Diagonal)
2.160475947,41.39576432,METRO,L3,DIAGONAL
2.160501287,41.39543119,METRO,L3,DIAGONAL (Pg. de Gràcia)
2.161111521,41.37521328,METRO,L3,POBLE SEC (Av. del Paral.lel)
2.160906732,41.3957541,METRO,L3,DIAGONAL (Pg. de Gràcia)
2.161692736,41.37521329,METRO,L3,POBLE SEC (Av. del Paral.lel)
2.164456013,41.39233695,METRO,L3,PASSEIG DE GRÀCIA (Pg. de Gràcia)
2.164572672,41.39290496,METRO,L3,PASSEIG DE GRÀCIA
2.164804153,41.39191413,METRO,L3,PASSEIG DE GRÀCIA (C. d'Aragó)
2.164873739,41.39259013,METRO,L3,PASSEIG DE GRÀCIA (Pg. de Gràcia)
2.165244772,41.39222619,METRO,L3,PASSEIG DE GRÀCIA (C. d'Aragó)
2.165648579,41.39136045,METRO,L3,PASSEIG DE GRÀCIA (C. del Consell de Cent)
2.165198403,41.44168029,METRO,L3,CANYELLES (Federico García Lorca)
2.166080754,41.44203344,METRO,L3,CANYELLES
2.166355833,41.44185401,METRO,L3,CANYELLES (Parc de Josep Maria Serra Martí)
2.169573649,41.3853753,METRO,L3,CATALUNYA (C. de Pelai)
2.169716894,41.3859554,METRO,L3,CATALUNYA (Pl. Catalunya)
2.170085231,41.37473752,METRO,L3,PARAL·LEL (Av. de Paral.lel)
2.170077215,41.3855408,METRO,L3,CATALUNYA (la Rambla)
2.170435578,41.37518651,METRO,L3,PARAL·LEL (C. Nou de la Rambla)
2.170346162,41.38629524,METRO,L3,CATALUNYA
2.170720373,41.37508872,METRO,L3,PARAL·LEL
2.170727953,41.38604976,METRO,L3,CATALUNYA (C. Fontanella)
2.172796998,41.38173195,METRO,L3,LICEU (La Rambla)
2.173509606,41.38097851,METRO,L3,LICEU (Pla de la Boqueria)
2.173532548,41.38067497,METRO,L3,LICEU
2.17555879,41.37668205,METRO,L3,DRASSANES (C. de Montserrat)
2.175019381,41.44691823,METRO,L3,ROQUETES (Vidal i Guasch)
2.175989626,41.377121,METRO,L3,DRASSANES (C. del Portal de Santa Madrona)
2.17628723,41.37682687,METRO,L3,DRASSANES
2.176445199,41.37720908,METRO,L3,DRASSANES (La Rambla)
2.176022416,41.44694252,METRO,L3,ROQUETES (Pla de Fornells)
2.17625478,41.44740337,METRO,L3,ROQUETES
2.177120645,41.44795983,METRO,L3,ROQUETES (Pla dels Cirerers)
2.184163514,41.44952367,METRO,L3,TRINITAT NOVA
2.184189852,41.44932111,METRO,L3,TRINITAT NOVA (Chafarinas)
2.184459206,41.44967472,METRO,L3,TRINITAT NOVA (Parc/Tamariu)
2.184723054,41.44930939,METRO,L3,TRINITAT NOVA (Parc)
2.142014621,41.42510927,METRO,"L3, L5",VALL D'HEBRON (Pg. de la Vall d'Hebron)
2.142989844,41.42493221,METRO,"L3, L5",VALL D'HEBRON (C. de les Basses d'Horta)
2.182952266,41.44927362,METRO,"L3,L4,L11",TRINITAT NOVA (Pedrosa)
2.162765872,41.40606091,METRO,L4,JOANIC (C. de l'Escorial)
2.16316561,41.40601036,METRO,L4,JOANIC (C. de Pi i Margall)
2.163317374,41.40653236,METRO,L4,JOANIC
2.165090334,41.41213229,METRO,L4,ALFONS X (Pl. d'Alfons el Savi)
2.166164602,41.41178454,METRO,L4,ALFONS X
2.16623227,41.41244091,METRO,L4,ALFONS X (Parc de les Aigües)
2.166886399,41.41205678,METRO,L4,ALFONS X (C. de Lepant)
2.167684188,41.38962447,METRO,L4,PASSEIG DE GRÀCIA
2.16777783,41.38967319,METRO,L4,PASSEIG DE GRÀCIA (Pg. de Gràcia)
2.168594148,41.40017927,METRO,L4,VERDAGUER
2.168672079,41.39999959,METRO,L4,VERDAGUER (Pg. de Sant Joan)
2.170861165,41.39483217,METRO,L4,GIRONA (C. Consell de Cent)
2.171336154,41.39480593,METRO,L4,GIRONA (C. de Girona)
2.17140839,41.39526936,METRO,L4,GIRONA
2.172615257,41.38878065,METRO,L4,URQUINAONA (Pl. d'Urquinaona)
2.173106433,41.38849,METRO,L4,URQUINAONA
2.172885857,41.43672483,METRO,L4,LLUCMAJOR (Pg. del Verdum)
2.173486568,41.43722392,METRO,L4,LLUCMAJOR
2.174159489,41.38757351,METRO,L4,URQUINAONA (Via Laietana)
2.173686971,41.4375894,METRO,L4,LLUCMAJOR (Pg. del Verdum)
2.173955097,41.43718771,METRO,L4,LLUCMAJOR (Pl. del Jardins d'Alfàbia)
2.174243355,41.41601372,METRO,L4,HOSPITAL DE SANT PAU GUINARDÓ (C. del Mas Casanovas)
2.17443942,41.41638726,METRO,L4,HOSPITAL DE SANT PAU GUINARDÓ (C. Sant Quintí)
2.174537862,41.41600549,METRO,L4,HOSPITAL DE SANT PAU GUINARDÓ
2.177351985,41.4227108,METRO,L4,MARAGALL (Rda. del Guinardó)
2.177696787,41.4242787,METRO,L4,MARAGALL
2.178345928,41.3841463,METRO,L4,JAUME I (Pl. l'Àngel)
2.179127807,41.3839937,METRO,L4,JAUME I
2.179206923,41.38378338,METRO,L4,JAUME I (Via Laietana)
2.178460819,41.44339173,METRO,L4,VIA JÚLIA (Via Júlia Batllori)
2.178828074,41.44415455,METRO,L4,VIA JÚLIA (Via Júlia Joaquim Valls)
2.178909037,41.44393777,METRO,L4,VIA JÚLIA
2.18566275,41.38268382,METRO,L4,BARCELONETA
2.185813166,41.38224655,METRO,L4,BARCELONETA (Pl. de Pau Vila)
2.191501408,41.3953105,METRO,L4,BOGATELL
2.191577315,41.39494581,METRO,L4,BOGATELL (C. de Pere IV)
2.192181169,41.39524836,METRO,L4,BOGATELL
2.192715565,41.38815609,METRO,L4,CIUTADELLA VILA OLIMPICA
2.192793154,41.39544713,METRO,L4,BOGATELL (C. de Pujades)
2.19319346,41.38821905,METRO,L4,CIUTADELLA VILA OLÍMPICA (C. Ramon Trias Fargas)
2.193329893,41.38792986,METRO,L4,CIUTADELLA VILA OLÍMPICA (Parc de Carles I)
2.197249966,41.39926649,METRO,L4,LLACUNA
2.197462429,41.3990354,METRO,L4,LLACUNA (C. de la Ciutat de Granada)
2.202858019,41.4034904,METRO,L4,POBLENOU (C. de Pujades)
2.203214797,41.40344976,METRO,L4,POBLENOU
2.20647416,41.42397068,METRO,L4,LA PAU
2.208413941,41.40791212,METRO,L4,SELVA DE MAR (C. de Provençals)
2.209673961,41.40821124,METRO,L4,SELVA DE MAR (C. de la Selva de Mar)
2.209961469,41.40816429,METRO,L4,SELVA DE MAR
2.210319169,41.42030092,METRO,L4,BESÒS
2.215634766,41.41547761,METRO,L4,BESÒS MAR (C. d'Alfons el Magnànim)
2.215690271,41.41501639,METRO,L4,BESÒS MAR
2.215911955,41.41174907,METRO,L4,EL MARESME FÒRUM (C. del Maresme)
2.216971269,41.41197206,METRO,L4,EL MARESME FÒRUM
2.217107051,41.41458447,METRO,L4,BESÒS MAR (C. d'Alfons el Magnànim)
2.217333214,41.41227458,METRO,L4,EL MARESME FÒRUM (Rambla Prim)
2.181621964,41.44867913,METRO,"L4,L11",TRINITAT NOVA (Aiguablava)
2.182477259,41.44929485,METRO,"L4,L11",TRINITAT NOVA
2.177222273,41.42449794,METRO,"L4,L5",MARAGALL (Pg. de Maragall)
2.072406766,41.35616,METRO,L5,CORNELLÀ CENTRE
2.072675166,41.35611662,METRO,L5,CORNELLÀ CENTRE
2.078906877,41.35771685,METRO,L5,GAVARRA
2.078920098,41.35739814,METRO,L5,GAVARRA
2.079002916,41.35807946,METRO,L5,GAVARRA
2.083996789,41.36276207,METRO,L5,SANT ILDEFONS
2.084166639,41.36328777,METRO,L5,SANT ILDEFONS
2.084576617,41.36329913,METRO,L5,SANT ILDEFONS
2.090784291,41.36606487,METRO,L5,CAN BOIXERES
2.091265332,41.36615711,METRO,L5,CAN BOIXERES
2.099240967,41.37132766,METRO,L5,CAN VIDALET
2.099890282,41.37158777,METRO,L5,CAN VIDALET
2.106777532,41.37356743,METRO,L5,PUBILLA CASES
2.107035705,41.37329966,METRO,L5,PUBILLA CASES
2.107649977,41.3740241,METRO,L5,PUBILLA CASES
2.108253258,41.3740694,METRO,L5,PUBILLA CASES
2.118299552,41.37580085,METRO,L5,COLLBLANC
2.120051395,41.37600716,METRO,L5,COLLBLANC
2.120680946,41.37595697,METRO,L5,COLLBLANC
2.121100628,41.37556927,METRO,L5,COLLBLANC
2.125581844,41.37571006,METRO,L5,BADAL (C. d'Arizala)
2.12602187,41.37550478,METRO,L5,BADAL (C. Carreras i Candi)
2.127315373,41.37561425,METRO,L5,BADAL
2.128138138,41.37564631,METRO,L5,BADAL (C. de Sants)
2.135036393,41.37550005,METRO,L5,PLAÇA DE SANTS (Pl. de Sants)
2.135482866,41.3754539,METRO,L5,PLAÇA DE SANTS
2.135851237,41.37543867,METRO,L5,PLAÇA DE SANTS (C. de Sants)
2.139296377,41.37970847,METRO,L5,SANTS ESTACIÓ
2.139741376,41.37961103,METRO,L5,SANTS ESTACIÓ (Pg. de Sant Antoni)
2.141447187,41.42507592,METRO,L5,VALL D'HEBRÓN
2.144955004,41.38413504,METRO,L5,ENTENÇA (C. d'Entença)
2.145608274,41.38446376,METRO,L5,ENTENÇA
2.146077672,41.38499047,METRO,L5,ENTENÇA (C. de Rocafort)
2.148075966,41.42314231,METRO,L5,EL COLL / LA TEIXONERA (Pl. de Sant Crispí)
2.148523208,41.42198345,METRO,L5,EL COLL / LA TEIXONERA
2.149506836,41.41988621,METRO,L5,EL COLL / LA TEIXONERA (C. del Beat Almató)
2.15029306,41.38823554,METRO,L5,HOSPITAL CLÍNIC (C. del Comte d'Urgell)
2.150145095,41.42098689,METRO,L5,EL COLL / LA TEIXONERA (C. de Batet)
2.150678454,41.38848539,METRO,L5,HOSPITAL CLÍNIC (C. del Comte d'Urgell)
2.150987032,41.38904201,METRO,L5,HOSPITAL CLÍNIC
2.151772488,41.38895577,METRO,L5,HOSPITAL CLÍNIC (C. de Villarroel)
2.155015318,41.42356788,METRO,L5,EL CARMEL (C. de Llobregós Mercat)
2.155128244,41.42460609,METRO,L5,EL CARMEL
2.156075764,41.42542744,METRO,L5,EL CARMEL (Pl. de Pastrana)
2.158489922,41.39446014,METRO,L5,DIAGONAL (Rambla de Catalunya)
2.159108143,41.3945452,METRO,L5,DIAGONAL (C. del Rosselló)
2.159162395,41.39489649,METRO,L5,DIAGONAL
2.158744676,41.42982033,METRO,L5,HORTA (Bda. de la Plana)
2.160485612,41.42973891,METRO,L5,HORTA (C. del Tajo)
2.161180661,41.42977166,METRO,L5,HORTA
2.161230404,41.43005129,METRO,L5,HORTA (Pl. d'Eivissa)
2.166279244,41.39868582,METRO,L5,VERDAGUER (C. de Girona)
2.166730834,41.39877801,METRO,L5,VERDAGUER
2.166994665,41.43061017,METRO,L5,VILAPICINA (C. de Canfranc)
2.167012631,41.43032829,METRO,L5,VILAPICINA (Pg. de Fabra i Puig)
2.167496571,41.39912998,METRO,L5,VERDAGUER (C. de Bailèn)
2.16776265,41.43083312,METRO,L5,VILAPICINA
2.168459335,41.43058134,METRO,L5,VILAPICINA (Pg. de Fabra i Puig)
2.173078896,41.40377102,METRO,L5,SAGRADA FAMÍLIA (C. de Sardenya)
2.173360012,41.40352096,METRO,L5,SAGRADA FAMÍLIA (C. de Provença)
2.173879547,41.40412621,METRO,L5,SAGRADA FAMÍLIA
2.174233451,41.40461564,METRO,L5,SAGRADA FAMÍLIA (C. de la Marina)
2.174135502,41.43027503,METRO,L5,VIRREI AMAT (Pg. Fabra i Puig)
2.174605232,41.43048577,METRO,L5,VIRREI AMAT (C. del Doctor Pi i Molist)
2.174847861,41.42941343,METRO,L5,VIRREI AMAT (Pl. de Virrei Amat)
2.174877594,41.42974108,METRO,L5,VIRREI AMAT
2.175395297,41.410175,METRO,L5,SANT PAU DOS DE MAIG (C. de Cartagena)
2.17557087,41.4292231,METRO,L5,VIRREI AMAT (C. de Felip II)
2.175903037,41.425742,METRO,L5,MARAGALL (Pg.de Maragall)
2.176266117,41.41122331,METRO,L5,SANT PAU DOS DE MAIG (C. del Dos de Maig)
2.176327039,41.41103034,METRO,L5,SANT PAU DOS DE MAIG
2.176477129,41.42587828,METRO,L5,MARAGALL
2.176560716,41.42564756,METRO,L5,MARAGALL (Av. de Borbó)
2.180783694,41.42351441,METRO,L5,CONGRÉS (C. de Garcilaso)
2.180941087,41.41500884,METRO,L5,CAMP DE L'ARPA
2.181116956,41.41480779,METRO,L5,CAMP DE L'ARPA (Pg. de Maragall)
2.181611743,41.4235372,METRO,L5,CONGRÉS
2.181744935,41.41534477,METRO,L5,CAMP DE L'ARPA (C. de la Indústria)
2.182126442,41.42345642,METRO,L5,CONGRÉS (Pl. dels Indians)
2.186581669,41.42203079,METRO,L5,LA SAGRERA (Av. Meridiana)
2.186899399,41.42156549,METRO,L5,LA SAGRERA
2.186499194,41.42056374,METRO,"L5,L9,L10",LA SAGRERA (C. Felipe II)
2.11870155,41.39843283,FGC,L6,REINA ELISENDA (Sortida J. V. Foix)
2.119000911,41.39897658,FGC,L6,REINA ELISENDA
2.119373097,41.39921252,FGC,L6,REINA ELISENDA (Sortida Duquesa d'Orleans)
2.124525589,41.39935934,FGC,L6,SARRIÀ
2.125115109,41.39896924,FGC,L6,SARRIÀ
2.125791836,41.39855366,FGC,L6,SARRIÀ
2.130078121,41.39816342,FGC,L6,LES TRES TORRES
2.130830943,41.39779037,FGC,L6,LES TRES TORRES
2.135116432,41.39790443,FGC,L6,LA BONANOVA
2.135430082,41.39780082,FGC,L6,LA BONANOVA
2.135504346,41.39764715,FGC,L6,LA BONANOVA
2.142756332,41.39864033,FGC,L6,MUNTANER
2.142854537,41.39898501,FGC,L6,MUNTANER
2.143253472,41.39865466,FGC,L6,MUNTANER
2.147018542,41.40138136,FGC,L6,SANT GERVASI
2.151638536,41.3996886,FGC,"L6,L7",GRÀCIA (C. de Marià Cubí)
2.152431555,41.40004842,FGC,"L6,L7",GRÀCIA (Pl. de Gal·la Placídia)
2.152509231,41.39956389,FGC,"L6,L7",GRÀCIA
2.157651436,41.39337109,FGC,"L6,L7",PROVENÇA (C. del Rossellò)
2.157958172,41.39291825,FGC,"L6,L7",PROVENÇA
2.158328778,41.39234017,FGC,"L6,L7",PROVENÇA (C. de Provença)
2.167017615,41.38592869,FGC,"L6,L7",CATALUNYA (C. de Balmes)
2.167648527,41.38610474,FGC,"L6,L7",CATALUNYA (C. de Bergara)
2.169505607,41.38571653,FGC,"L6,L7",CATALUNYA
2.169600391,41.38585188,FGC,"L6,L7",CATALUNYA (C. de Pelai)
2.137175723,41.41023638,FGC,L7,AVINGUDA DEL TIBIDABO
2.139250581,41.40573996,FGC,L7,EL PUTXET
2.13925911,41.40605283,FGC,L7,EL PUTXET
2.139532084,41.40545104,FGC,L7,EL PUTXET
2.14261967,41.4036052,FGC,L7,PADUA
2.142963912,41.40344892,FGC,L7,PADUA
2.143267332,41.40314245,FGC,L7,PADUA
2.147575544,41.40141289,FGC,L7,PLAÇA MOLINA
2.034691634,41.35772009,FGC,L8,MOLÍ NOU CIUTAT COOPERATIVA
2.043261796,41.34815455,FGC,L8,SANT BOI
2.068430099,41.35185495,FGC,L8,CORNELLÀ:RIERA
2.08674829,41.35301999,FGC,L8,ALMEDA
2.103424439,41.35780313,FGC,L8,L'HOSPITALET:AV. CARRILET
2.111682815,41.36128044,FGC,L8,SANT JOSEP
2.117533257,41.3553694,FGC,L8,GORNAL
2.125371226,41.35701441,FGC,L8,EUROPA / FIRA
2.13046533,41.36140021,FGC,L8,ILDEFONS CERDÀ
2.131682199,41.36097112,FGC,L8,ILDEFONS CERDÀ
2.139360338,41.36823728,FGC,L8,MAGÒRIA LA CAMPANA
2.148630735,41.37455641,FGC,L8,ESPANYA
2.198552832,41.4572627,METRO,L9,CAN ZAM
2.205782845,41.45937553,METRO,L9,SINGUERLÍN
2.210133119,41.44425516,METRO,L9,CAN PEIXAUET
2.212415214,41.45451214,METRO,L9,ESGLÉSIA MAJOR
2.215910831,41.44669334,METRO,L9,SANTA ROSA
2.186244867,41.42096946,METRO,"L9, L10",LA SAGRERA
2.19313514,41.42975784,METRO,"L9, L10",ONZE DE SETEMBRE
2.204796554,41.43607404,METRO,"L9, L10",BON PASTOR
2.205214396,41.43618267,METRO,"L9, L10",BON PASTOR
